{
    "places": [
        {
            "id": "1",
            "name": "Bangalore Palace",
            "location": { "lat": 12.9987, "lng": 77.5920},
            "searchString": "Bangalore Palace",
            "marked": false
        },
        {
            "id": "2",
            "name": "Cubbon Park",
            "location": { "lat": 12.9763, "lng": 77.5929},
            "searchString": "Cubbon Park",
            "marked": false
        },
        {
            "id": "3",
            "name": "Lal Bagh",
            "location": { "lat": 12.9507, "lng": 77.5848},
            "searchString": "Lal Bagh",
            "marked": false
        },
        {
            "id": "4",
            "name": "M G Road",
            "location": { "lat": 12.973801, "lng": 77.611885},
            "searchString": "M G Road Bangalore",
            "marked": false
        },
        {
            "id": "5",
            "name": "Bannerghatta National Park",
            "location": { "lat": 12.8003, "lng": 77.5770},
            "searchString": "Bannerghatta National Park",
            "marked": false
        },
        {
            "id": "6",
            "name": "ISKCON Temple",
            "location": { "lat": 13.0098, "lng": 77.5511},
            "searchString": "ISKCON Temple Bangalore",
            "marked": false
        },
        {
            "id": "7",
            "name": "Vidhana Soudha",
            "location": { "lat": 12.9795, "lng": 77.5909},
            "searchString": "Vidhana Soudha",
            "marked": false
        },
        {
            "id": "8",
            "name": "Kempegowda Bus Station",
            "location": { "lat": 12.9778, "lng": 77.5728},
            "searchString": "Kempegowda Bus Station",
            "marked": false
        },
        {
            "id": "9",
            "name": "Bull Temple",
            "location": { "lat": 12.9429, "lng": 77.5682},
            "searchString": "Dodda Ganesh Gudi",
            "marked": false
        },
        {
            "id": "10",
            "name": "Bangalore Fort",
            "location": { "lat": 12.9629, "lng": 77.5760},
            "searchString": "Bangalore Fort",
            "marked": false
        }
    ]
}